[{"pharmacy_type":"Guardian","pharmacy_branches":[{"id":0,"postal_code":"59413","building_name":"Chinatown Point 4","unit_number":"34","level_number":"B1","road_name":"NEW BRIDGE ROAD","block_number":"133","pharmacy_name":"Guardian Pharmacy (Chinatown Point 4)","coordinates":[103.844697087192,1.28499883313915,0]},{"id":1,"postal_code":"39393","building_name":"City Link","unit_number":"67","level_number":"B1","road_name":"RAFFLES LINK","block_number":"1","pharmacy_name":"Guardian Pharmacy (City Link)","coordinates":[103.854173508666,1.29277773939561,0]},{"id":2,"postal_code":"208539","building_name":"City Square Mall","unit_number":"18/19","level_number":"B1","road_name":"KITCHENER ROAD","block_number":"180","pharmacy_name":"Guardian Pharmacy (City Square Mall)","coordinates":[103.856487115197,1.31139350343283,0]},{"id":3,"postal_code":"129588","building_name":"Clementi Mall","unit_number":"59/60/61","level_number":"3","road_name":"COMMONWEALTH AVENUE WEST","block_number":"3155","pharmacy_name":"Guardian Pharmacy (Clementi Mall)","coordinates":[103.764248204763,1.31485323068366,0]},{"id":4,"postal_code":"48621","building_name":"Clifford Centre 2","unit_number":"19/20/21","level_number":"1","road_name":"RAFFLES PLACE","block_number":"24","pharmacy_name":"Guardian Pharmacy (Clifford Centre 2)","coordinates":[103.852128179258,1.2838569939881,0]},{"id":5,"postal_code":"545078","building_name":"Compass One","unit_number":"11","level_number":"B1","road_name":"SENGKANG SQUARE","block_number":"1","pharmacy_name":"Guardian Pharmacy (Compass One)","coordinates":[103.89498002896,1.39209415560853,0]},{"id":6,"postal_code":"819642","building_name":"Departure Transit Lounge East","unit_number":"69","level_number":"2","road_name":"AIRPORT BOULEVARD","block_number":"80","pharmacy_name":"Guardian Pharmacy (Departure Transit Lounge East)","coordinates":[103.989707256049,1.3624910006739,0]},{"id":7,"postal_code":"819642","building_name":"Departure Transit West T1","unit_number":"16","level_number":"2","road_name":"AIRPORT BOULEVARD","block_number":"80","pharmacy_name":"Guardian Pharmacy (Departure Transit West T1)","coordinates":[103.989707256049,1.3624910006739,0]},{"id":8,"postal_code":"819643","building_name":"Departure/Check In Hall North","unit_number":"12","level_number":"26","road_name":"AIRPORT BOULEVARD","block_number":"60","pharmacy_name":"Guardian Pharmacy (Departure/Check In Hall North)","coordinates":[103.988750980352,1.35519094499408,0]},{"id":9,"postal_code":"819643","building_name":"Departure/Transit Lounge North Terminal 2","unit_number":"095A","level_number":"26","road_name":"AIRPORT BOULEVARD","block_number":"60","pharmacy_name":"Guardian Pharmacy (Departure/Transit Lounge North Terminal 2)","coordinates":[103.988750980352,1.35519094499408,0]},{"id":10,"postal_code":"819643","building_name":"Departure/Transit Lounge South","unit_number":"115-01","level_number":"26","road_name":"AIRPORT BOULEVARD","block_number":"60","pharmacy_name":"Guardian Pharmacy (Departure/Transit Lounge South)","coordinates":[103.988750980352,1.35519094499408,0]},{"id":11,"postal_code":"258499","building_name":"Gleneagles","unit_number":"6-Aug","level_number":"2","road_name":"NAPIER ROAD","block_number":"6","pharmacy_name":"Guardian Pharmacy (Gleneagles)","coordinates":[103.820124456725,1.30706156876825,0]},{"id":12,"postal_code":"237994","building_name":"Great World City","unit_number":"18/19","level_number":"B1","road_name":"KIM SENG PROMENADE","block_number":"1","pharmacy_name":"Guardian Pharmacy (Great World City)","coordinates":[103.831757914599,1.29380235820186,0]},{"id":13,"postal_code":"530205","building_name":"H205","unit_number":"129","level_number":"1","road_name":"HOUGANG STREET 21","block_number":"205","pharmacy_name":"Guardian Pharmacy (H205)","coordinates":[103.885079921543,1.35949664734933,0]},{"id":14,"postal_code":"99253","building_name":"Harbourfront Centre","unit_number":"111/112","level_number":"2","road_name":"MARITIME SQUARE","block_number":"1","pharmacy_name":"Guardian Pharmacy (Harbourfront Centre)","coordinates":[103.818625583667,1.26206337173976,0]},{"id":15,"postal_code":"278967","building_name":"Holland Shopping Centre","unit_number":"11","level_number":"1","road_name":"HOLLAND AVE","block_number":"211","pharmacy_name":"Guardian Pharmacy (Holland Shopping Centre)","coordinates":[103.795350445461,1.31025541990594,0]},{"id":16,"postal_code":"538766","building_name":"Hougang Mall","unit_number":"31","level_number":"B1","road_name":"HOUGANG AVENUE 10","block_number":"90","pharmacy_name":"Guardian Pharmacy (Hougang Mall)","coordinates":[103.893661609335,1.37231185733402,0]},{"id":17,"postal_code":"609601","building_name":"IMM2","unit_number":"56/57","level_number":"1","road_name":"JURONG EAST ST 21","block_number":"2","pharmacy_name":"Guardian Pharmacy (IMM2)","coordinates":[103.74663823992,1.33502430217022,0]},{"id":18,"postal_code":"238801","building_name":"ION","unit_number":"2","level_number":"B4","road_name":"ORCHARD TURN","block_number":"2","pharmacy_name":"Guardian Pharmacy (ION)","coordinates":[103.831395138107,1.30403578206272,0]},{"id":19,"postal_code":"608549","building_name":"JEM","unit_number":"16/17","level_number":"B1","road_name":"JURONG GATEWAY ROAD","block_number":"50","pharmacy_name":"Guardian Pharmacy (JEM)","coordinates":[103.743170429104,1.33320021580922,0]},{"id":20,"postal_code":"278628","building_name":"Jelita","unit_number":"10","level_number":"2","road_name":"HOLLAND RD","block_number":"293","pharmacy_name":"Guardian Pharmacy (Jelita)","coordinates":[103.785840618421,1.31756196835634,0]},{"id":21,"postal_code":"648331","building_name":"Jurong Point 2","unit_number":"27/28","level_number":"B1","road_name":"JURONG WEST CENTRAL 3","block_number":"63","pharmacy_name":"Guardian Pharmacy (Jurong Point 2)","coordinates":[103.705308194381,1.33936402101731,0]},{"id":22,"postal_code":"640503","building_name":"Jurong West Blk 503","unit_number":"845","level_number":"1","road_name":"JURONG WEST AVENUE 1","block_number":"503","pharmacy_name":"Guardian Pharmacy (Jurong West Blk 503)","coordinates":[103.717704811505,1.34995540028616,0]},{"id":23,"postal_code":"397693","building_name":"Kallang Leisure Park 2","unit_number":"23","level_number":"1","road_name":"STADIUM WALK","block_number":"5","pharmacy_name":"Guardian Pharmacy (Kallang Leisure Park 2)","coordinates":[103.876152670397,1.3022217738606,0]},{"id":24,"postal_code":"428802","building_name":"Katong Mall","unit_number":"7","level_number":"B1","road_name":"EAST COAST ROAD","block_number":"112","pharmacy_name":"Guardian Pharmacy (Katong Mall)","coordinates":[103.905014935834,1.3052347202485,0]},{"id":25,"postal_code":"689812","building_name":"LOT 1","unit_number":"26/27","level_number":"B1","road_name":"CHOA CHU KANG AVENUE 4","block_number":"21","pharmacy_name":"Guardian Pharmacy (LOT 1)","coordinates":[103.744950386857,1.38506836029318,0]},{"id":26,"postal_code":"208699","building_name":"Lavender MRT Station","unit_number":"1","level_number":"B1","road_name":"KALLANG ROAD","block_number":"50","pharmacy_name":"Guardian Pharmacy (Lavender MRT Station)","coordinates":[103.862767638972,1.307377508298,0]},{"id":27,"postal_code":"18972","building_name":"Marina Bay Sands","unit_number":"49","level_number":"B2","road_name":"BAYFRONT AVENUE","block_number":"2","pharmacy_name":"Guardian Pharmacy (Marina Bay Sands)","coordinates":[103.858505752034,1.28355872902487,0]},{"id":28,"postal_code":"228510","building_name":"Mount Elizabeth","unit_number":"10-Nov","level_number":"2","road_name":"MOUNT ELIZABETH","block_number":"3","pharmacy_name":"Guardian Pharmacy (Mount Elizabeth)","coordinates":[103.835439347424,1.30516521414743,0]},{"id":29,"postal_code":"59221","building_name":"Pagoda Street","unit_number":"","level_number":"","road_name":"PAGODA STREET","block_number":"62","pharmacy_name":"Guardian Pharmacy (Pagoda Street)","coordinates":[103.844086263705,1.28376231214434,0]},{"id":30,"postal_code":"238859","building_name":"Paragon","unit_number":"20/24","level_number":"B1","road_name":"ORCHARD ROAD","block_number":"290","pharmacy_name":"Guardian Pharmacy (Paragon)","coordinates":[103.835240316416,1.30372321734212,0]},{"id":31,"postal_code":"449269","building_name":"Parkway Parade","unit_number":"147-149/155A","level_number":"B1","road_name":"MARINE PARADE ROAD","block_number":"80","pharmacy_name":"Guardian Pharmacy (Parkway Parade)","coordinates":[103.905113594951,1.30119132286102,0]},{"id":32,"postal_code":"238839","building_name":"Plaza Singapura","unit_number":"13/14","level_number":"B2","road_name":"ORCHARD ROAD","block_number":"68","pharmacy_name":"Guardian Pharmacy (Plaza Singapura)","coordinates":[103.845047624011,1.30074756196425,0]},{"id":33,"postal_code":"179103","building_name":"Raffles City","unit_number":"11","level_number":"B1","road_name":"NORTH BRIDGE RD","block_number":"252","pharmacy_name":"Guardian Pharmacy (Raffles City)","coordinates":[103.853119913433,1.29389358572057,0]},{"id":34,"postal_code":"48618","building_name":"Raffles Place MRT 3","unit_number":"37-40/43-45","level_number":"B1","road_name":"RAFFLES PLACE","block_number":"5","pharmacy_name":"Guardian Pharmacy (Raffles Place MRT 3)","coordinates":[103.851379782035,1.28433393431627,0]},{"id":35,"postal_code":"797653","building_name":"Seletar Mall","unit_number":"10-Nov","level_number":"B1","road_name":"SENGKANG WEST AVENUE","block_number":"33","pharmacy_name":"Guardian Pharmacy (Seletar Mall)","coordinates":[103.87606766308,1.39139305906039,0]},{"id":36,"postal_code":"555962","building_name":"Serangoon Garden","unit_number":"","level_number":"","road_name":"SERANGOON GARDEN WAY","block_number":"66","pharmacy_name":"Guardian Pharmacy (Serangoon Garden)","coordinates":[103.865452652785,1.36414322114501,0]},{"id":37,"postal_code":"556083","building_name":"Serangoon NEX","unit_number":"62/63","level_number":"B1","road_name":"SERANGOON CENTRAL","block_number":"23","pharmacy_name":"Guardian Pharmacy (Serangoon NEX)","coordinates":[103.8718616202,1.35067551423922,0]},{"id":38,"postal_code":"138617","building_name":"Star Vista","unit_number":"16","level_number":"B1","road_name":"VISTA EXCHANGE GREEN","block_number":"1","pharmacy_name":"Guardian Pharmacy (Star Vista)","coordinates":[103.788214532235,1.3068488257737,0]},{"id":39,"postal_code":"757713","building_name":"Sun Plaza 2","unit_number":"11","level_number":"B1","road_name":"SEMBAWANG DRIVE","block_number":"30","pharmacy_name":"Guardian Pharmacy (Sun Plaza 2)","coordinates":[103.819462112616,1.44822653003392,0]},{"id":40,"postal_code":"38983","building_name":"Suntec City","unit_number":"328/329","level_number":"2","road_name":"TEMASEK BOULEVARD","block_number":"3","pharmacy_name":"Guardian Pharmacy (Suntec City)","coordinates":[103.857675495254,1.2948790592606,0]},{"id":41,"postal_code":"539775","building_name":"Tai Seng Street","unit_number":"19-21","level_number":"1","road_name":"TAI SENG STREET","block_number":"18","pharmacy_name":"Guardian Pharmacy (Tai Seng Street)","coordinates":[103.888762712133,1.3365386711551,0]},{"id":42,"postal_code":"238872","building_name":"Takashimaya S. C.","unit_number":"15-23","level_number":"B2","road_name":"ORCHARD ROAD","block_number":"391","pharmacy_name":"Guardian Pharmacy (Takashimaya S. C. )","coordinates":[103.834676130167,1.30242417909429,0]},{"id":43,"postal_code":"529538","building_name":"Tampines MRT","unit_number":"1","level_number":"1","road_name":"TAMPINES CENTRAL 1","block_number":"20","pharmacy_name":"Guardian Pharmacy (Tampines MRT)","coordinates":[103.944838297789,1.35364657681096,0]},{"id":44,"postal_code":"529510","building_name":"Tampines Mall","unit_number":"18/19","level_number":"B1","road_name":"TAMPINES CENTRAL 5","block_number":"4","pharmacy_name":"Guardian Pharmacy (Tampines Mall)","coordinates":[103.94438799002,1.35267231861995,0]},{"id":45,"postal_code":"247933","building_name":"Tanglin Mall","unit_number":"18","level_number":"1","road_name":"TANGLIN ROAD","block_number":"163","pharmacy_name":"Guardian Pharmacy (Tanglin Mall)","coordinates":[103.82385280368,1.30484344306554,0]},{"id":46,"postal_code":"238843","building_name":"The Centrepoint","unit_number":"01/02/03/04","level_number":"B1","road_name":"ORCHARD ROAD","block_number":"176","pharmacy_name":"Guardian Pharmacy (The Centrepoint)","coordinates":[103.839758893919,1.30197804806506,0]},{"id":47,"postal_code":"574408","building_name":"Thomson Plaza 2","unit_number":"48","level_number":"3","road_name":"UPPER THOMSON ROAD","block_number":"301","pharmacy_name":"Guardian Pharmacy (Thomson Plaza 2)","coordinates":[103.830919790223,1.3546690242467,0]},{"id":48,"postal_code":"168732","building_name":"Tiong Bahru Plaza","unit_number":"125","level_number":"B1","road_name":"TIONG BAHRU ROAD","block_number":"302","pharmacy_name":"Guardian Pharmacy (Tiong Bahru Plaza)","coordinates":[103.82693508249,1.28646346132616,0]},{"id":49,"postal_code":"310190","building_name":"Toa Payoh Blk 190","unit_number":"578","level_number":"1","road_name":"LORONG 6 TOA PAYOH","block_number":"190","pharmacy_name":"Guardian Pharmacy (Toa Payoh Blk 190)","coordinates":[103.847965424321,1.33297561827727,0]},{"id":50,"postal_code":"307591","building_name":"United Square 2","unit_number":"28","level_number":"B1","road_name":"THOMSON ROAD","block_number":"101","pharmacy_name":"Guardian Pharmacy (United Square 2)","coordinates":[103.843463176991,1.31733463710903,0]},{"id":51,"postal_code":"98585","building_name":"Vivo City","unit_number":"23","level_number":"1","road_name":"HARBOURFRONT WALK","block_number":"1","pharmacy_name":"Guardian Pharmacy (Vivo City)","coordinates":[103.821589252212,1.26389582040559,0]},{"id":52,"postal_code":"528765","building_name":"WRS","unit_number":"1","level_number":"1","road_name":"TAMPINES NORTH DRIVE 2","block_number":"21","pharmacy_name":"Guardian Pharmacy (WRS)","coordinates":[103.931999894938,1.37210169899061,0]},{"id":53,"postal_code":"658713","building_name":"West Mall","unit_number":"27","level_number":"1","road_name":"BUKIT BATOK CENTRAL LINK","block_number":"1","pharmacy_name":"Guardian Pharmacy (West Mall)","coordinates":[103.749021980031,1.35018915711658,0]},{"id":54,"postal_code":"608532","building_name":"Westgate","unit_number":"20","level_number":"B1","road_name":"GATEWAY DRIVE","block_number":"3","pharmacy_name":"Guardian Pharmacy (Westgate)","coordinates":[103.742586016848,1.33402528926324,0]},{"id":55,"postal_code":"689715","building_name":"Yew Tee MRT","unit_number":"02A","level_number":"1","road_name":"CHOA CHU KANG DRIVE","block_number":"61","pharmacy_name":"Guardian Pharmacy (Yew Tee MRT)","coordinates":[103.747329722792,1.39712885562235,0]},{"id":56,"postal_code":"329984","building_name":"Zhongsan Park","unit_number":"20/21","level_number":"1","road_name":"AH HOOD ROAD","block_number":"20","pharmacy_name":"Guardian Pharmacy (Zhongsan Park)","coordinates":[103.84647646119,1.32708486276788,0]},{"id":135,"postal_code":"828761","building_name":"Waterway Point","unit_number":"4","level_number":"B1","road_name":"PUNGGOL CENTRAL","block_number":"83","pharmacy_name":"Guardian Pharmacy ( Waterway Point)","coordinates":[103.902073301521,1.40648143230247,0]},{"id":136,"postal_code":"238895","building_name":"313 @ Somerset","unit_number":"13/14","level_number":"B3","road_name":"ORCHARD ROAD","block_number":"313","pharmacy_name":"Guardian Pharmacy (313 @ Somerset)","coordinates":[103.837684360221,1.30138510756215,0]},{"id":137,"postal_code":"731678","building_name":"Admiralty","unit_number":"39","level_number":"1","road_name":"WOODLANDS AVENUE 6","block_number":"678A","pharmacy_name":"Guardian Pharmacy (Admiralty)","coordinates":[103.801537360417,1.4403636667802,0]},{"id":138,"postal_code":"79027","building_name":"Amara Hotel","unit_number":"9","level_number":"2","road_name":"TRAS STREET","block_number":"100","pharmacy_name":"Guardian Pharmacy (Amara Hotel)","coordinates":[103.843470745358,1.27458821970543,0]},{"id":139,"postal_code":"560704","building_name":"Ang Mo Kio 3","unit_number":"2559","level_number":"1","road_name":"ANG MO KIO AVENUE 8","block_number":"704","pharmacy_name":"Guardian Pharmacy (Ang Mo Kio 3)","coordinates":[103.847230719199,1.37040711481372,0]},{"id":140,"postal_code":"460210","building_name":"Bedok Central","unit_number":"715","level_number":"1","road_name":"NEW UPPER CHANGI ROAD","block_number":"210","pharmacy_name":"Guardian Pharmacy (Bedok Central)","coordinates":[103.931819172592,1.32460705860301,0]},{"id":141,"postal_code":"467360","building_name":"Bedok Mall","unit_number":"45/47","level_number":"B2","road_name":"NEW UPPER CHANGI ROAD","block_number":"311","pharmacy_name":"Guardian Pharmacy (Bedok Mall)","coordinates":[103.929267657363,1.32477208083125,0]},{"id":142,"postal_code":"579837","building_name":"Bishan Place","unit_number":"8","level_number":"B1","road_name":"BISHAN PLACE","block_number":"9","pharmacy_name":"Guardian Pharmacy (Bishan Place)","coordinates":[103.848477635059,1.35023942096603,0]},{"id":143,"postal_code":"188021","building_name":"Bugis Junction 3","unit_number":"20/21","level_number":"B1","road_name":"VICTORIA STREET","block_number":"200","pharmacy_name":"Guardian Pharmacy (Bugis Junction 3)","coordinates":[103.85532795899,1.29906798897959,0]},{"id":144,"postal_code":"188022","building_name":"Bugis MRT","unit_number":"1","level_number":"B1","road_name":"VICTORIA STREET","block_number":"220","pharmacy_name":"Guardian Pharmacy (Bugis MRT)","coordinates":[103.855614760659,1.30026469884522,0]},{"id":145,"postal_code":"677743","building_name":"Bukit Panjang Plaza","unit_number":"1/2/2003","level_number":"1","road_name":"JELEBU ROAD","block_number":"1","pharmacy_name":"Guardian Pharmacy (Bukit Panjang Plaza)","coordinates":[103.763993946246,1.38054245503335,0]},{"id":146,"postal_code":"738099","building_name":"Causeway Point","unit_number":"28/30","level_number":"B1","road_name":"WOODLANDS SQUARE","block_number":"1","pharmacy_name":"Guardian Pharmacy (Causeway Point)","coordinates":[103.785688738337,1.43600784336274,0]},{"id":147,"postal_code":"819663","building_name":"Changi T3 Basement 2 North","unit_number":"24","level_number":"B2","road_name":"AIRPORT BOULEVARD","block_number":"65","pharmacy_name":"Guardian Pharmacy (Changi T3 Basement 2 North)","coordinates":[103.98516964608,1.35437073436533,0]},{"id":148,"postal_code":"769098","building_name":"Northpoint","unit_number":"2-Mar","level_number":"B1","road_name":"YISHUN AVENUE 2","block_number":"930","pharmacy_name":"Guardian Pharmacy (Northpoint)","coordinates":[103.835776493093,1.42969847788612,0]},{"id":149,"postal_code":"329563","building_name":"Novena Hospital","unit_number":"08/09/10/11","level_number":"1","road_name":"IRRAWADDY ROAD","block_number":"38","pharmacy_name":"Guardian Pharmacy (Novena Hospital)","coordinates":[103.84422625836,1.3221465582724,0]},{"id":150,"postal_code":"307683","building_name":"Novena Square","unit_number":"31","level_number":"1","road_name":"THOMSON ROAD","block_number":"238","pharmacy_name":"Guardian Pharmacy (Novena Square)","coordinates":[103.843656768213,1.32021101149494,0]},{"id":151,"postal_code":"528523","building_name":"Our Tampines Hub","unit_number":"29","level_number":"B1","road_name":"TAMPINES WALK","block_number":"1","pharmacy_name":"Guardian Pharmacy (Our Tampines Hub)","coordinates":[103.939683598938,1.35349615381357,0]},{"id":265,"postal_code":"518457","building_name":"White Sands Mall","unit_number":"12","level_number":"1","road_name":"PASIR RIS CENTRAL STREET 3","block_number":"1","pharmacy_name":"Guardian Pharmacy (White Sands Mall)","coordinates":[103.949715696944,1.37244980890777,0]},{"id":267,"postal_code":"238869","building_name":"International Building","unit_number":"18","level_number":"1","road_name":"ORCHARD ROAD","block_number":"360","pharmacy_name":"Guardian Pharmacy (International Building)","coordinates":[103.831003324156,1.30607516858878,0]}]},{"pharmacy_type":"Watson's","pharmacy_branches":[{"id":218,"postal_code":"828761","building_name":"WATERTOWN","unit_number":"31 TO 32","level_number":"B1","road_name":"PUNGGOL CENTRAL","block_number":"83","pharmacy_name":"WATSON'S PERSONAL CARE STORES PTE LTD (WATERWAY POINT)","coordinates":[103.902073301521,1.40648143230247,0]},{"id":222,"postal_code":"238863","building_name":"LUCKY PLAZA","unit_number":"26-30/39-42","level_number":"B1","road_name":"ORCHARD ROAD","block_number":"304","pharmacy_name":"Watson's Personal Care Store Pte Ltd (Lucky Plaza)","coordinates":[103.833941937816,1.30448580007632,0]},{"id":223,"postal_code":"460211","building_name":"Bedok Central","unit_number":"735/737","level_number":"1","road_name":"NEW UPPER CHANGI ROAD","block_number":"211","pharmacy_name":"Watson's Personal Care Stores Pte Ltd (Bedok Central)","coordinates":[103.931967583215,1.32550084935603,0]},{"id":224,"postal_code":"467360","building_name":"BEDOK MALL","unit_number":"Dec-13","level_number":"B2","road_name":"NEW UPPER CHANGI ROAD","block_number":"311","pharmacy_name":"Watson's Personal Care Stores Pte Ltd (Bedok Mall)","coordinates":[103.929267657363,1.32477208083125,0]},{"id":225,"postal_code":"188021","building_name":"BUGIS JUNCTION","unit_number":"27 TO 33/33A","level_number":"2","road_name":"VICTORIA STREET","block_number":"200","pharmacy_name":"Watson's Personal Care Stores Pte Ltd (Bugis Junction)","coordinates":[103.85532795899,1.29906798897959,0]},{"id":226,"postal_code":"677743","building_name":"BUKIT PANJANG PLAZA","unit_number":"30/31","level_number":"1","road_name":"JELEBU ROAD","block_number":"1","pharmacy_name":"Watson's Personal Care Stores Pte Ltd (Bukit Panjang Plaza)","coordinates":[103.763993946246,1.38054245503335,0]},{"id":227,"postal_code":"738099","building_name":"CAUSEWAY POINT","unit_number":"14/15","level_number":"B1","road_name":"WOODLANDS SQUARE","block_number":"1","pharmacy_name":"Watson's Personal Care Stores Pte Ltd (Causeway Point)","coordinates":[103.785688738337,1.43600784336274,0]},{"id":228,"postal_code":"819663","building_name":"CHANGI AIRPORT TERMINAL 3","unit_number":"24","level_number":"B2","road_name":"AIRPORT BOULEVARD","block_number":"65","pharmacy_name":"Watson's Personal Care Stores Pte Ltd (Changi Airport T3 Basement)","coordinates":[103.98516964608,1.35437073436533,0]},{"id":229,"postal_code":"819663","building_name":"CHANGI AIRPORT TERMINAL 3","unit_number":"95/96","level_number":"2","road_name":"AIRPORT BOULEVARD","block_number":"65","pharmacy_name":"Watson's Personal Care Stores Pte Ltd (Changi Airport T3 Check in Hall)","coordinates":[103.98516964608,1.35437073436533,0]},{"id":230,"postal_code":"819665","building_name":"CHANGI AIRPORT TERMINAL 4","unit_number":"7","level_number":"2","road_name":"AIRPORT BOULEVARD","block_number":"10","pharmacy_name":"Watson's Personal Care Stores Pte Ltd (Changi Airport T4 Check in Hall)","coordinates":[103.983569030385,1.33826733905461,0]},{"id":231,"postal_code":"819663","building_name":"CHANGI AIRPORT TERMINAL 3","unit_number":"66","level_number":"2","road_name":"AIRPORT BOULEVARD","block_number":"65","pharmacy_name":"Watson's Personal Care Stores Pte Ltd (Changi Airport Terminal 3 Transit North)","coordinates":[103.98516964608,1.35437073436533,0]},{"id":232,"postal_code":"819663","building_name":"CHANGI AIRPORT TERMINAL 3","unit_number":"29","level_number":"2","road_name":"AIRPORT BOULEVARD","block_number":"65","pharmacy_name":"Watson's Personal Care Stores Pte Ltd (Changi Airport Terminal 3 Transit)","coordinates":[103.98516964608,1.35437073436533,0]},{"id":233,"postal_code":"129588","building_name":"THE CLEMENTI MALL","unit_number":"37/38/39","level_number":"B1","road_name":"COMMONWEALTH AVENUE WEST","block_number":"3155","pharmacy_name":"Watson's Personal Care Stores Pte Ltd (Clementi Mall)","coordinates":[103.764248204763,1.31485323068366,0]},{"id":234,"postal_code":"545078","building_name":"COMPASS ONE","unit_number":"9","level_number":"2","road_name":"SENGKANG SQUARE","block_number":"1","pharmacy_name":"Watson's Personal Care Stores Pte Ltd (Compass One)","coordinates":[103.89498002896,1.39209415560853,0]},{"id":235,"postal_code":"237994","building_name":"GREAT WORLD CITY","unit_number":"53A/54","level_number":"1","road_name":"KIM SENG PROMENADE","block_number":"1","pharmacy_name":"Watson's Personal Care Stores Pte Ltd (Great World City)","coordinates":[103.831757914599,1.29380235820186,0]},{"id":236,"postal_code":"469662","building_name":"HEARTBEAT @ BEDOK","unit_number":"08 TO 10","level_number":"1","road_name":"BEDOK NORTH STREET 1","block_number":"11","pharmacy_name":"Watson's Personal Care Stores Pte Ltd (Heartbeat@bedok)","coordinates":[103.931663531574,1.32699717215909,0]},{"id":237,"postal_code":"538766","building_name":"HOUGANG MALL","unit_number":"2","level_number":"3","road_name":"HOUGANG AVENUE 10","block_number":"90","pharmacy_name":"Watson's Personal Care Stores Pte Ltd (Hougang Mall)","coordinates":[103.893661609335,1.37231185733402,0]},{"id":238,"postal_code":"609601","building_name":"IMM BUILDING","unit_number":"54/55","level_number":"1","road_name":"JURONG EAST STREET 21","block_number":"2","pharmacy_name":"Watson's Personal Care Stores Pte Ltd (IMM)","coordinates":[103.74663823992,1.33502430217022,0]},{"id":239,"postal_code":"79903","building_name":"INTERNATIONAL PLAZA","unit_number":"62-67","level_number":"1","road_name":"ANSON ROAD","block_number":"10","pharmacy_name":"Watson's Personal Care Stores Pte Ltd (International Plaza)","coordinates":[103.845703221284,1.2757356907569,0]},{"id":240,"postal_code":"608549","building_name":"JEM","unit_number":"7","level_number":"B1","road_name":"JURONG GATEWAY ROAD","block_number":"50","pharmacy_name":"Watson's Personal Care Stores Pte Ltd (Jem)","coordinates":[103.743170429104,1.33320021580922,0]},{"id":241,"postal_code":"579837","building_name":"JUNCTION 8 SHOPPING CENTRE","unit_number":"45/46","level_number":"2","road_name":"BISHAN PLACE","block_number":"9","pharmacy_name":"Watson's Personal Care Stores Pte Ltd (Junction 8)","coordinates":[103.848477635059,1.35023942096603,0]},{"id":242,"postal_code":"648886","building_name":"JURONG POINT","unit_number":"Dec-13","level_number":"B1","road_name":"JURONG WEST CENTRAL 2","block_number":"1","pharmacy_name":"Watson's Personal Care Stores Pte Ltd (Jurong Point)","coordinates":[103.70646088413,1.33983015348378,0]},{"id":243,"postal_code":"18984","building_name":"MARINA BAY LINK MALL","unit_number":"57/58/59","level_number":"B2","road_name":"MARINA BOULEVARD","block_number":"8A","pharmacy_name":"Watson's Personal Care Stores Pte Ltd (Marina Bay Financial Centre)","coordinates":[103.853349299215,1.28022768611889,0]},{"id":244,"postal_code":"39594","building_name":"MARINA SQUARE","unit_number":"212","level_number":"2","road_name":"RAFFLES BOULEVARD","block_number":"6","pharmacy_name":"Watson's Personal Care Stores Pte Ltd (Marina Square)","coordinates":[103.857007334718,1.29145527172639,0]},{"id":245,"postal_code":"556083","building_name":"NEX","unit_number":"57","level_number":"2","road_name":"SERANGOON CENTRAL","block_number":"23","pharmacy_name":"Watson's Personal Care Stores Pte Ltd (NEX)","coordinates":[103.8718616202,1.35067551423922,0]},{"id":246,"postal_code":"238872","building_name":"NGEE ANN CITY","unit_number":"6-Sep","level_number":"B2","road_name":"ORCHARD RD","block_number":"391","pharmacy_name":"Watson's Personal Care Stores Pte Ltd (Ngee Ann City)","coordinates":[103.834676130167,1.30242417909429,0]},{"id":247,"postal_code":"768019","building_name":"NORTHPOINT CITY","unit_number":"161/162/163/164","level_number":"B1","road_name":"NORTHPOINT DRIVE","block_number":"1","pharmacy_name":"Watson's Personal Care Stores Pte Ltd (North Point)","coordinates":[103.83614203513,1.42799995648726,0]},{"id":248,"postal_code":"307683","building_name":"NOVENA SQUARE","unit_number":"6/7/2009","level_number":"2","road_name":"THOMSON ROAD","block_number":"238","pharmacy_name":"Watson's Personal Care Stores Pte Ltd (Novena Square)","coordinates":[103.843656768213,1.32021101149494,0]},{"id":249,"postal_code":"119082","building_name":"NUH MEDICAL CENTRE","unit_number":"33","level_number":"1","road_name":"LOWER KENT RIDGE ROAD","block_number":"1","pharmacy_name":"Watson's Personal Care Stores Pte Ltd (One@Kentridge)","coordinates":[103.784084013897,1.29277432153154,0]},{"id":250,"postal_code":"238859","building_name":"THE PARAGON","unit_number":"32/33/37","level_number":"B1","road_name":"ORCHARD ROAD","block_number":"290","pharmacy_name":"Watson's Personal Care Stores Pte Ltd (Paragon)","coordinates":[103.835240316416,1.30372321734212,0]},{"id":251,"postal_code":"449269","building_name":"PARKWAY PARADE","unit_number":"14/15/16","level_number":"B1","road_name":"MARINE PARADE ROAD","block_number":"80","pharmacy_name":"Watson's Personal Care Stores Pte Ltd (Parkway Parade)","coordinates":[103.905113594951,1.30119132286102,0]},{"id":252,"postal_code":"179103","building_name":"RAFFLES CITY SHOPPING CENTRE","unit_number":"42","level_number":"B1","road_name":"NORTH BRIDGE ROAD","block_number":"252","pharmacy_name":"Watson's Personal Care Stores Pte Ltd (Raffles City)","coordinates":[103.853119913433,1.29389358572057,0]},{"id":253,"postal_code":"98138","building_name":"RESORTS WORLD SENTOSA","unit_number":"71","level_number":"1","road_name":"SENTOSA GATEWAY","block_number":"26","pharmacy_name":"Watson's Personal Care Stores Pte Ltd (Resort World Sentosa)","coordinates":[103.819935358828,1.25629973367949,0]},{"id":254,"postal_code":"329566","building_name":"Royal Square","unit_number":"2-Apr","level_number":"2","road_name":"IRRAWADDY ROAD","block_number":"103","pharmacy_name":"Watson's Personal Care Stores Pte Ltd (Royal Square)","coordinates":[103.843219262774,1.32057156809253,0]},{"id":255,"postal_code":"529510","building_name":"TAMPINES MALL","unit_number":"7/8/2009","level_number":"B1","road_name":"TAMPINES CENTRAL 5","block_number":"4","pharmacy_name":"Watson's Personal Care Stores Pte Ltd (Tampines Mall)","coordinates":[103.94438799002,1.35267231861995,0]},{"id":256,"postal_code":"310190","building_name":"","unit_number":"510","level_number":"1","road_name":"LORONG 6 TOA PAYOH","block_number":"190","pharmacy_name":"Watson's Personal Care Stores Pte Ltd (Toa Payoh HDB Hub)","coordinates":[103.847965424321,1.33297561827727,0]},{"id":257,"postal_code":"307591","building_name":"UNITED SQUARE","unit_number":"53","level_number":"B1","road_name":"THOMSON ROAD","block_number":"101","pharmacy_name":"Watson's Personal Care Stores Pte Ltd (United Square)","coordinates":[103.843463176991,1.31733463710903,0]},{"id":258,"postal_code":"98585","building_name":"VIVO CITY","unit_number":"15-17","level_number":"B2","road_name":"HARBOURFRONT WALK","block_number":"1","pharmacy_name":"Watson's Personal Care Stores Pte Ltd (Vivo City)","coordinates":[103.821589252212,1.26389582040559,0]},{"id":259,"postal_code":"658713","building_name":"WEST MALL","unit_number":"26/27","level_number":"2","road_name":"BUKIT BATOK CENTRAL LINK","block_number":"1","pharmacy_name":"Watson's Personal Care Stores Pte Ltd (West Mall)","coordinates":[103.749021980031,1.35018915711658,0]},{"id":260,"postal_code":"238801","building_name":"ION ORCHARD","unit_number":"12","level_number":"B4","road_name":"ORCHARD TURN","block_number":"2","pharmacy_name":"Watson's Personal Care Stores Pte Ltd Ion Orchard","coordinates":[103.831395138107,1.30403578206272,0]}]},{"pharmacy_type":"Unity","pharmacy_branches":[{"id":59,"postal_code":"609606","building_name":"Jurong Community Hospital","unit_number":"0","level_number":"1","road_name":"JURONG EAST STREET 21","block_number":"1","pharmacy_name":"Jurong Community Hospital Pharmacy","coordinates":[103.743865457667,1.33553382005591,0]},{"id":113,"postal_code":"529895","building_name":"SAINT ANDREW'S HOSPITAL","unit_number":"0","level_number":"1","road_name":"SIMEI STREET 3","block_number":"8","pharmacy_name":"ST ANDREW'S COMMUNITY HOSPITAL PHARMACY","coordinates":[103.94875944263,1.34177633813431,0]},{"id":166,"postal_code":"99253","building_name":"HARBOURFRONT CENTRE","unit_number":"118","level_number":"2","road_name":"MARITIME SQUARE","block_number":"1","pharmacy_name":"UNITY (HBF)","coordinates":[103.818625583667,1.26206337173976,0]},{"id":167,"postal_code":"538766","building_name":"HOUGANG MALL","unit_number":"35/36","level_number":"B1","road_name":"HOUGANG AVENUE 10","block_number":"90","pharmacy_name":"UNITY (HLC)","coordinates":[103.893661609335,1.37231185733402,0]},{"id":168,"postal_code":"608549","building_name":"JEM","unit_number":"37","level_number":"B1","road_name":"JURONG GATEWAY ROAD","block_number":"50","pharmacy_name":"UNITY (JEM)","coordinates":[103.743170429104,1.33320021580922,0]},{"id":169,"postal_code":"238839","building_name":"PLAZA SINGAPURA","unit_number":"20A","level_number":"B2","road_name":"ORCHARD ROAD","block_number":"68","pharmacy_name":"UNITY (PSG)","coordinates":[103.845047624011,1.30074756196425,0]},{"id":170,"postal_code":"168732","building_name":"TIONG BAHRU PLAZA","unit_number":"117","level_number":"B1","road_name":"TIONG BAHRU ROAD","block_number":"302","pharmacy_name":"UNITY (TBR) Tiong Bahru Plaza","coordinates":[103.82693508249,1.28646346132616,0]},{"id":171,"postal_code":"529536","building_name":"TAMPINES ONE","unit_number":"11-Dec","level_number":"B1","road_name":"TAMPINES CENTRAL 1","block_number":"10","pharmacy_name":"UNITY (TPO)","coordinates":[103.94501945797,1.3543155616697,0]},{"id":172,"postal_code":"689578","building_name":"YEWTEE POINT","unit_number":"8-Sep","level_number":"B1","road_name":"CHOA CHU KANG NORTH 6","block_number":"21","pharmacy_name":"UNITY (YTP)","coordinates":[103.746558068394,1.39730190678225,0]},{"id":173,"postal_code":"460212","building_name":"","unit_number":"147","level_number":"2","road_name":"BEDOK NORTH STREET 1","block_number":"212","pharmacy_name":"UNITY By FairPrice (BN(A))","coordinates":[103.931640026857,1.32594069863812,0]},{"id":174,"postal_code":"528833","building_name":"EASTPOINT MALL","unit_number":"1","level_number":"5","road_name":"SIMEI STREET 6","block_number":"3","pharmacy_name":"UNITY By FairPrice (EPT)","coordinates":[103.953024502927,1.3427061855347,0]},{"id":175,"postal_code":"569933","building_name":"AMK HUB","unit_number":"21/25","level_number":"B2","road_name":"ANG MO KIO AVENUE 3","block_number":"53","pharmacy_name":"UNITY By FairPrice (HAMK)","coordinates":[103.848399227484,1.36924891643767,0]},{"id":176,"postal_code":"538766","building_name":"HOUGANG MALL","unit_number":"35/36","level_number":"B1","road_name":"HOUGANG AVENUE 10","block_number":"90","pharmacy_name":"UNITY By FairPrice (HGLS)","coordinates":[103.893661609335,1.37231185733402,0]},{"id":177,"postal_code":"538692","building_name":"HOUGANG 1","unit_number":"1","level_number":"2","road_name":"HOUGANG STREET 91","block_number":"1","pharmacy_name":"UNITY By FairPrice (HGPT)","coordinates":[103.879450259184,1.37566727538473,0]},{"id":178,"postal_code":"556083","building_name":"NEX","unit_number":"37/38","level_number":"3","road_name":"SERANGOON CENTRAL","block_number":"23","pharmacy_name":"UNITY By FairPrice (HNEX)","coordinates":[103.8718616202,1.35067551423922,0]},{"id":179,"postal_code":"648886","building_name":"JURONG POINT","unit_number":"9","level_number":"B1","road_name":"JURONG WEST CENTRAL 2","block_number":"1","pharmacy_name":"UNITY By FairPrice (JPT)","coordinates":[103.70646088413,1.33983015348378,0]},{"id":180,"postal_code":"689812","building_name":"LOT ONE SHOPPERS MALL","unit_number":"4-May","level_number":"B1","road_name":"CHOA CHU KANG AVENUE 4","block_number":"21","pharmacy_name":"UNITY By FairPrice (LOT1)","coordinates":[103.744950386857,1.38506836029318,0]},{"id":181,"postal_code":"449411","building_name":"MARINE PARADE BRANCH LIBRARY","unit_number":"0","level_number":"1","road_name":"MARINE PARADE CENTRAL","block_number":"6","pharmacy_name":"UNITY By FairPrice (MP)","coordinates":[103.907112661381,1.30141955163034,0]},{"id":182,"postal_code":"437157","building_name":"ONE KM","unit_number":"23/24","level_number":"B1","road_name":"TANJONG KATONG ROAD","block_number":"11","pharmacy_name":"UNITY By FairPrice (OKM)","coordinates":[103.894480534166,1.31469214206398,0]},{"id":183,"postal_code":"820168","building_name":"PUNGGOL PLAZA","unit_number":"1-Feb","level_number":"3","road_name":"PUNGGOL FIELD","block_number":"168","pharmacy_name":"UNITY By FairPrice (PGOL)","coordinates":[103.912976447074,1.39418408936854,0]},{"id":184,"postal_code":"828761","building_name":"WATERTOWN","unit_number":"26","level_number":"B2","road_name":"PUNGGOL CENTRAL","block_number":"83","pharmacy_name":"UNITY By FairPrice (PGWW)","coordinates":[103.902073301521,1.40648143230247,0]},{"id":185,"postal_code":"238839","building_name":"PLAZA SINGAPURA","unit_number":"20A","level_number":"B2","road_name":"ORCHARD ROAD","block_number":"68","pharmacy_name":"UNITY By FairPrice (PSG)","coordinates":[103.845047624011,1.30074756196425,0]},{"id":186,"postal_code":"540118","building_name":"RIVERVALE PLAZA","unit_number":"16","level_number":"1","road_name":"RIVERVALE DRIVE","block_number":"118","pharmacy_name":"UNITY By FairPrice (RVAL)","coordinates":[103.901558023969,1.38493201852065,0]},{"id":187,"postal_code":"408600","building_name":"SINGAPORE POST CENTRE","unit_number":"122","level_number":"B1","road_name":"EUNOS ROAD 8","block_number":"10","pharmacy_name":"UNITY By FairPrice (SPO)","coordinates":[103.894731356004,1.3188694092953,0]},{"id":188,"postal_code":"529510","building_name":"TAMPINES MALL","unit_number":"12","level_number":"B1","road_name":"TAMPINES CENTRAL 5","block_number":"4","pharmacy_name":"UNITY By FairPrice (TAML)","coordinates":[103.94438799002,1.35267231861995,0]},{"id":189,"postal_code":"168732","building_name":"TIONG BAHRU PLAZA","unit_number":"117","level_number":"B1","road_name":"TIONG BAHRU ROAD","block_number":"302","pharmacy_name":"UNITY By FairPrice (TBRU)","coordinates":[103.82693508249,1.28646346132616,0]},{"id":190,"postal_code":"81005","building_name":"","unit_number":"1","level_number":"1","road_name":"TANJONG PAGAR PLAZA","block_number":"5","pharmacy_name":"UNITY By FairPrice (TGP)","coordinates":[103.843006119406,1.27624052704306,0]},{"id":191,"postal_code":"319398","building_name":"TOA PAYOH MRT STATION","unit_number":"2","level_number":"B1","road_name":"LORONG 6 TOA PAYOH","block_number":"510","pharmacy_name":"UNITY By FairPrice (THDB)","coordinates":[103.847128319359,1.33289113559556,0]},{"id":192,"postal_code":"574408","building_name":"THOMSON PLAZA","unit_number":"102","level_number":"1","road_name":"UPPER THOMSON ROAD","block_number":"301","pharmacy_name":"UNITY By FairPrice (THPZ)","coordinates":[103.830919790223,1.3546690242467,0]},{"id":193,"postal_code":"247933","building_name":"TANGLIN MALL","unit_number":"13","level_number":"B1","road_name":"TANGLIN ROAD","block_number":"163","pharmacy_name":"UNITY By FairPrice (TMA)","coordinates":[103.82385280368,1.30484344306554,0]},{"id":194,"postal_code":"529536","building_name":"TAMPINES ONE","unit_number":"11-Dec","level_number":"B1","road_name":"TAMPINES CENTRAL 1","block_number":"10","pharmacy_name":"UNITY By FairPrice (TPO)","coordinates":[103.94501945797,1.3543155616697,0]},{"id":195,"postal_code":"119963","building_name":"PSA BUILDING","unit_number":"4/5/2006","level_number":"2","road_name":"ALEXANDRA ROAD","block_number":"460","pharmacy_name":"UNITY By FairPrice (UARC)","coordinates":[103.801126952741,1.27367658025915,0]},{"id":196,"postal_code":"150166","building_name":"BUKIT MERAH AREA OFFICE","unit_number":"3531","level_number":"1","road_name":"BUKIT MERAH CENTRAL","block_number":"166","pharmacy_name":"UNITY By FairPrice (UBMC)","coordinates":[103.817642878697,1.28311949916043,0]},{"id":197,"postal_code":"677743","building_name":"BUKIT PANJANG PLAZA","unit_number":"6","level_number":"1","road_name":"JELEBU ROAD","block_number":"1","pharmacy_name":"UNITY By FairPrice (UBPP)","coordinates":[103.763993946246,1.38054245503335,0]},{"id":198,"postal_code":"588996","building_name":"BUKIT TIMAH PLAZA","unit_number":"1","level_number":"B1","road_name":"JALAN ANAK BUKIT","block_number":"1","pharmacy_name":"UNITY By FairPrice (UBTPZ)","coordinates":[103.778560469301,1.33865677365242,0]},{"id":199,"postal_code":"237994","building_name":"GREAT WORLD CITY","unit_number":"14/15","level_number":"B1","road_name":"KIM SENG PROMENADE","block_number":"1","pharmacy_name":"UNITY By FairPrice (UGWC)","coordinates":[103.831757914599,1.29380235820186,0]},{"id":200,"postal_code":"99253","building_name":"HARBOURFRONT CENTRE","unit_number":"118/119","level_number":"2","road_name":"MARITIME SQUARE","block_number":"1","pharmacy_name":"UNITY By FairPrice (UHBF)","coordinates":[103.818625583667,1.26206337173976,0]},{"id":201,"postal_code":"648331","building_name":"JURONG POINT","unit_number":"1","level_number":"3","road_name":"JURONG WEST CENTRAL 3","block_number":"63","pharmacy_name":"UNITY By FairPrice (UHJPT )Hyper Jurong Point","coordinates":[103.705308194381,1.33936402101731,0]},{"id":202,"postal_code":"678278","building_name":"HILLION MALL","unit_number":"64/65","level_number":"B2","road_name":"PETIR ROAD","block_number":"17","pharmacy_name":"UNITY By FairPrice (UHLM)","coordinates":[103.76274117629,1.37834971441738,0]},{"id":203,"postal_code":"608549","building_name":"JEM","unit_number":"37","level_number":"B1","road_name":"JURONG GATEWAY ROAD","block_number":"50","pharmacy_name":"UNITY By FairPrice (UJEM)","coordinates":[103.743170429104,1.33320021580922,0]},{"id":204,"postal_code":"579837","building_name":"JUNCTION 8 SHOPPING CENTRE","unit_number":"16","level_number":"B1","road_name":"BISHAN PLACE","block_number":"9","pharmacy_name":"UNITY By FairPrice (UJX8)","coordinates":[103.848477635059,1.35023942096603,0]},{"id":205,"postal_code":"768019","building_name":"NORTHPOINT CITY","unit_number":"103-107","level_number":"B2","road_name":"NORTHPOINT DRIVE","block_number":"1","pharmacy_name":"UNITY By FairPrice (UNPCT) North Point City","coordinates":[103.83614203513,1.42799995648726,0]},{"id":206,"postal_code":"797653","building_name":"THE SELETAR MALL","unit_number":"16/17/18","level_number":"B2","road_name":"SENGKANG WEST AVENUE","block_number":"33","pharmacy_name":"UNITY By FairPrice (USMA)","coordinates":[103.87606766308,1.39139305906039,0]},{"id":207,"postal_code":"760849","building_name":"KHATIB CENTRAL","unit_number":"3703","level_number":"1","road_name":"YISHUN RING ROAD","block_number":"849","pharmacy_name":"UNITY By FairPrice (UYSH)","coordinates":[103.835218185047,1.41698316124314,0]},{"id":208,"postal_code":"608532","building_name":"WESTGATE","unit_number":"21","level_number":"B1","road_name":"GATEWAY DRIVE","block_number":"3","pharmacy_name":"UNITY By FairPrice (WGA)","coordinates":[103.742586016848,1.33402528926324,0]},{"id":209,"postal_code":"819663","building_name":"CHANGI AIRPORT TERMINAL 3","unit_number":"57","level_number":"B2","road_name":"AIRPORT BOULEVARD","block_number":"65","pharmacy_name":"UNITY By Fairprice (CIA3)","coordinates":[103.98516964608,1.35437073436533,0]},{"id":210,"postal_code":"129588","building_name":"THE CLEMENTI MALL","unit_number":"11","level_number":"B1","road_name":"COMMONWEALTH AVENUE WEST","block_number":"3155","pharmacy_name":"UNITY By Fairprice (CLML)","coordinates":[103.764248204763,1.31485323068366,0]},{"id":211,"postal_code":"689578","building_name":"YEWTEE POINT","unit_number":"8-Sep","level_number":"B1","road_name":"CHOA CHU KANG NORTH 6","block_number":"21","pharmacy_name":"UNITY By Fairprice (YTP)","coordinates":[103.746558068394,1.39730190678225,0]},{"id":212,"postal_code":"828761","building_name":"WATERTOWN","unit_number":"26","level_number":"B2","road_name":"PUNGGOL CENTRAL","block_number":"83","pharmacy_name":"UNITY Waterway Point (WWP)","coordinates":[103.902073301521,1.40648143230247,0]},{"id":213,"postal_code":"678278","building_name":"HILLION MALL","unit_number":"64/65","level_number":"B2","road_name":"PETIR ROAD","block_number":"17","pharmacy_name":"Unity (HLM) Hillion Mall","coordinates":[103.76274117629,1.37834971441738,0]},{"id":214,"postal_code":"397628","building_name":"Sports Hub","unit_number":"29","level_number":"1","road_name":"STADIUM PLACE","block_number":"1","pharmacy_name":"Unity By FairPrice (HSPH) Sports Hub","coordinates":[103.872750703245,1.30384327307314,0]},{"id":268,"postal_code":"518457","building_name":"","unit_number":"2","level_number":"B1","road_name":"PASIR RIS CENTRAL STREET 3","block_number":"1","pharmacy_name":"UNITY By FairPrice (UWSA)","coordinates":[103.949715696944,1.37244980890777,0]}]},{"pharmacy_type":"NHG","pharmacy_branches":[{"id":76,"postal_code":"688846","building_name":"","unit_number":"","level_number":"","road_name":"TECK WHYE CRESCENT","block_number":"2","pharmacy_name":"NHG Pharmacy (CCK Polyclinic)","coordinates":[103.750776877796,1.38234138480857,0]},{"id":77,"postal_code":"768796","building_name":"","unit_number":"0","level_number":"1","road_name":"YISHUN CENTRAL 1","block_number":"30A","pharmacy_name":"NHG Pharmacy (Yishun)","coordinates":[103.8383334142,1.42653750597707,0]},{"id":104,"postal_code":"539747","building_name":"","unit_number":"0","level_number":"1","road_name":"BUANGKOK VIEW","block_number":"10","pharmacy_name":"Pharmacy Services Centre  NHG (Blk 9)","coordinates":[103.883348795228,1.38158954889555,0]}]},{"pharmacy_type":"Others","pharmacy_branches":[{"id":57,"postal_code":"569766","building_name":"Thye Hua Kwan Hospital","unit_number":"0","level_number":"1","road_name":"ANG MO KIO AVE 9","block_number":"17","pharmacy_name":"Healing Hub @ Ang Mo Kio - Thye Hua Kwan Hospital","coordinates":[103.840172119463,1.38427915854095,0]},{"id":58,"postal_code":"308433","building_name":"","unit_number":"0","level_number":"1","road_name":"JALAN TAN TOCK SENG","block_number":"11","pharmacy_name":"Johns Hopkins Singapore International Medical Centre Pte Ltd","coordinates":[103.845389010681,1.32171598577179,0]},{"id":60,"postal_code":"648346","building_name":"","unit_number":"8","level_number":"1","road_name":"JURONG WEST CENTRAL 3","block_number":"60","pharmacy_name":"Jurong Medical Centre Pharmacy","coordinates":[103.70445268171,1.3404695704551,0]},{"id":61,"postal_code":"229899","building_name":"","unit_number":"OV92A","level_number":"B1","road_name":"BUKIT TIMAH ROAD","block_number":"100","pharmacy_name":"KK Emergency Pharmacy","coordinates":[103.846650080461,1.3104485343334,0]},{"id":62,"postal_code":"229899","building_name":"","unit_number":"1R20A","level_number":"1","road_name":"BUKIT TIMAH ROAD","block_number":"100","pharmacy_name":"KK Outpatient Pharmacy","coordinates":[103.846650080461,1.3104485343334,0]},{"id":63,"postal_code":"768828","building_name":"","unit_number":"0","level_number":"1","road_name":"YISHUN CENTRAL","block_number":"90","pharmacy_name":"Khoo Teck Puat Hospital Pharmacy","coordinates":[103.837853670556,1.4238775983318,0]},{"id":64,"postal_code":"530356","building_name":"","unit_number":"799","level_number":"1","road_name":"HOUGANG AVENUE 7","block_number":"356","pharmacy_name":"MANAPHARMA","coordinates":[103.898813152707,1.37259313275845,0]},{"id":65,"postal_code":"200803","building_name":"","unit_number":"182","level_number":"2","road_name":"KING GEORGE'S AVENUE","block_number":"803","pharmacy_name":"MEDI-LINK PHARMACY","coordinates":[103.860912790695,1.30836526479411,0]},{"id":66,"postal_code":"207704","building_name":"MUSTAFA CENTRE","unit_number":"","level_number":"","road_name":"SYED ALWI RD","block_number":"145","pharmacy_name":"MOHAMED MUSTAFA & SAMSUDDIN CO PTE LTD (MUSTAFA CENTRE)","coordinates":[103.85499981962,1.31053196208373,0]},{"id":67,"postal_code":"329563","building_name":"MOUNT ELIZABETH NOVENA HOSPITAL","unit_number":"0","level_number":"4","road_name":"IRRAWADDY ROAD","block_number":"38","pharmacy_name":"MOUNT ELIZABETH NOVENA HOSPITAL PHARMACY","coordinates":[103.84422625836,1.3221465582724,0]},{"id":68,"postal_code":"574623","building_name":"MT ALVERNIA HOSPITAL","unit_number":"0","level_number":"1","road_name":"THOMSON ROAD","block_number":"820","pharmacy_name":"MT ALVERNIA HOSPITAL RETAIL PHARMACY","coordinates":[103.837524327839,1.34180969642913,0]},{"id":69,"postal_code":"574623","building_name":"Mount Alvernia Hospital","unit_number":"29","level_number":"2","road_name":"THOMSON ROAD","block_number":"820","pharmacy_name":"Mount Alvernia Hospital (Main Pharmacy)","coordinates":[103.837524327839,1.34180969642913,0]},{"id":70,"postal_code":"228510","building_name":"Mount Elizabeth Hospital","unit_number":"0","level_number":"2","road_name":"MOUNT ELIZABETH","block_number":"3","pharmacy_name":"Mount Elizabeth Hospital","coordinates":[103.835439347424,1.30516521414743,0]},{"id":71,"postal_code":"169610","building_name":"NATIONAL CANCER CENTRE","unit_number":"","level_number":"","road_name":"HOSPITAL DR","block_number":"11","pharmacy_name":"NATIONAL CANCER CENTRE PHARMACY (LEVEL 1)","coordinates":[103.836531564343,1.27929090033647,0]},{"id":72,"postal_code":"169610","building_name":"NATIONAL CANCER CENTRE","unit_number":"","level_number":"","road_name":"HOSPITAL DR","block_number":"11","pharmacy_name":"NATIONAL CANCER CENTRE PHARMACY (LEVEL 3)","coordinates":[103.836531564343,1.27929090033647,0]},{"id":73,"postal_code":"308205","building_name":"","unit_number":"","level_number":"","road_name":"MANDALAY RD","block_number":"1","pharmacy_name":"NATIONAL SKIN CENTRE (S) PTE LTD (PHARMACY)","coordinates":[103.849006945923,1.31968290585282,0]},{"id":74,"postal_code":"119074","building_name":"","unit_number":"0","level_number":"1","road_name":"LOWER KENT RIDGE ROAD","block_number":"5","pharmacy_name":"NATIONAL UNIVERSITY HOSPITAL (S) PTE LTD (RETAIL PHARMACY)","coordinates":[103.782710306478,1.29395579048752,0]},{"id":75,"postal_code":"119082","building_name":"","unit_number":"0","level_number":"3","road_name":"LOWER KENT RIDGE ROAD","block_number":"1","pharmacy_name":"NATIONAL UNIVERSITY HOSPITAL(S) PTE LTD (MEDICAL CENTRE PHARMACY)","coordinates":[103.784084013897,1.29277432153154,0]},{"id":78,"postal_code":"588996","building_name":"","unit_number":"1","level_number":"B1","road_name":"JALAN ANAK BUKIT","block_number":"1","pharmacy_name":"NTUC Healthcare (BTP)","coordinates":[103.778560469301,1.33865677365242,0]},{"id":79,"postal_code":"574408","building_name":"","unit_number":"102","level_number":"1","road_name":"UPPER THOMSON ROAD","block_number":"301","pharmacy_name":"NTUC Healthcare - The Living Pharmacy (TSP)","coordinates":[103.830919790223,1.3546690242467,0]},{"id":80,"postal_code":"539747","building_name":"","unit_number":"BLK 9","level_number":"B1","road_name":"BUANGKOK VIEW","block_number":"10","pharmacy_name":"National Addiction Management Services (NAMS) Clinic Pharmacy","coordinates":[103.883348795228,1.38158954889555,0]},{"id":81,"postal_code":"569666","building_name":"","unit_number":"0","level_number":"2","road_name":"ANG MO KIO CENTRAL 2","block_number":"21","pharmacy_name":"National Healthcare Group Pharmacy (Ang Mo Kio)","coordinates":[103.845608355592,1.3743114848527,0]},{"id":82,"postal_code":"560723","building_name":"","unit_number":"4136","level_number":"1","road_name":"ANG MO KIO AVENUE 8","block_number":"723","pharmacy_name":"National Healthcare Group Pharmacy (Ang Mo Kio)","coordinates":[103.847182023169,1.37231859836598,0]},{"id":83,"postal_code":"659164","building_name":"","unit_number":"","level_number":"","road_name":"BUKIT BATOK WEST AVE 3","block_number":"50","pharmacy_name":"National Healthcare Group Pharmacy (Bukit Batok)","coordinates":[103.747822269279,1.35201516757708,0]},{"id":84,"postal_code":"120451","building_name":"","unit_number":"307","level_number":"2","road_name":"CLEMENTI AVENUE 3","block_number":"451","pharmacy_name":"National Healthcare Group Pharmacy (Clementi)","coordinates":[103.765476761292,1.31248298606182,0]},{"id":85,"postal_code":"389707","building_name":"GEYLANG POLYCLINIC","unit_number":"0","level_number":"2","road_name":"GEYLANG EAST CENTRAL","block_number":"21","pharmacy_name":"National Healthcare Group Pharmacy (Geylang)","coordinates":[103.88716604212,1.31949366288669,0]},{"id":86,"postal_code":"538829","building_name":"","unit_number":"","level_number":"","road_name":"HOUGANG AVE 4","block_number":"89","pharmacy_name":"National Healthcare Group Pharmacy (Hougang)","coordinates":[103.888996393185,1.37001805225518,0]},{"id":87,"postal_code":"609788","building_name":"","unit_number":"","level_number":"","road_name":"JURONG EAST AVE 1","block_number":"190","pharmacy_name":"National Healthcare Group Pharmacy (Jurong)","coordinates":[103.730717872533,1.34971979274729,0]},{"id":88,"postal_code":"648201","building_name":"","unit_number":"0","level_number":"2","road_name":"JURONG WEST STREET 61","block_number":"26","pharmacy_name":"National Healthcare Group Pharmacy (Pioneer)","coordinates":[103.698979343273,1.33856225076873,0]},{"id":89,"postal_code":"148958","building_name":"","unit_number":"0","level_number":"2","road_name":"STIRLING ROAD","block_number":"580","pharmacy_name":"National Healthcare Group Pharmacy (Queenstown)","coordinates":[103.800957799118,1.29847548246501,0]},{"id":90,"postal_code":"319260","building_name":"","unit_number":"","level_number":"","road_name":"LORONG 8 TOA PAYOH","block_number":"2003","pharmacy_name":"National Healthcare Group Pharmacy (Toa Payoh)","coordinates":[103.858956450507,1.33448028001705,0]},{"id":91,"postal_code":"738579","building_name":"","unit_number":"0","level_number":"1","road_name":"WOODLANDS STREET 31","block_number":"10","pharmacy_name":"National Healthcare Group Pharmacy (Woodlands)","coordinates":[103.775212924656,1.43089322864369,0]},{"id":92,"postal_code":"768898","building_name":"","unit_number":"0","level_number":"2","road_name":"YISHUN AVENUE 9","block_number":"2","pharmacy_name":"National Healthcare Group Pharmacy (Yishun)","coordinates":[103.839190702134,1.43035851618124,0]},{"id":93,"postal_code":"169609","building_name":"","unit_number":"0","level_number":"2","road_name":"HOSPITAL DRIVE","block_number":"5","pharmacy_name":"National Heart Centre Singapore","coordinates":[103.835954422994,1.27863260741604,0]},{"id":94,"postal_code":"119074","building_name":"","unit_number":"","level_number":"","road_name":"LOWER KENT RIDGE ROAD","block_number":"5","pharmacy_name":"National University Hosital - Kent Ridge Wing Pharmacy","coordinates":[103.782710306478,1.29395579048752,0]},{"id":95,"postal_code":"119082","building_name":"","unit_number":"0","level_number":"9","road_name":"LOWER KENT RIDGE ROAD","block_number":"1","pharmacy_name":"National University Hospital (s) Pte Ltd (Pharmacy @ NCIS)","coordinates":[103.784084013897,1.29277432153154,0]},{"id":96,"postal_code":"609606","building_name":"","unit_number":"0","level_number":"L2","road_name":"JURONG EAST STREET 21","block_number":"1","pharmacy_name":"Ng Teng Fong General Hospital Outpatient & Retail Pharmacy","coordinates":[103.743865457667,1.33553382005591,0]},{"id":97,"postal_code":"238868","building_name":"","unit_number":"0","level_number":"B1","road_name":"ORCHARD ROAD","block_number":"350","pharmacy_name":"Nishino Pharmacy (Shaw House)","coordinates":[103.831507327539,1.30580979402183,0]},{"id":98,"postal_code":"238873","building_name":"","unit_number":"17","level_number":"B2","road_name":"ORCHARD ROAD","block_number":"391A","pharmacy_name":"Nishino Pharmacy (Takashimaya)","coordinates":[103.834676130167,1.30242417909429,0]},{"id":99,"postal_code":"247909","building_name":"","unit_number":"40","level_number":"1","road_name":"TANGLIN ROAD","block_number":"19","pharmacy_name":"P & L Pharmacy Pte Ltd","coordinates":[103.827036521629,1.30637275109892,0]},{"id":100,"postal_code":"427990","building_name":"","unit_number":"","level_number":"","road_name":"JOO CHIAT PLACE","block_number":"321","pharmacy_name":"PARKWAY EAST HOSPITAL PHARMACY","coordinates":[103.908756860126,1.3150882403844,0]},{"id":101,"postal_code":"529906","building_name":"","unit_number":"0","level_number":"1","road_name":"SIMEI STREET 3","block_number":"2A","pharmacy_name":"PHARMACY @ CGH MEDICAL CENTRE","coordinates":[103.949280034146,1.33948749359899,0]},{"id":102,"postal_code":"596180","building_name":"","unit_number":"37","level_number":"1","road_name":"JALAN JURONG KECHIL","block_number":"68","pharmacy_name":"Pacific Pharmacy Pte Ltd","coordinates":[103.773649138565,1.34054847027196,0]},{"id":103,"postal_code":"529889","building_name":"","unit_number":"0","level_number":"1","road_name":"SIMEI STREET 3","block_number":"2","pharmacy_name":"Pharmacy A  Changi General Hospital","coordinates":[103.949294393687,1.34068473250176,0]},{"id":105,"postal_code":"529889","building_name":"","unit_number":"1","level_number":"J1","road_name":"SIMEI STREET 3","block_number":"2","pharmacy_name":"Pharmacy@IB  CGH (The Integrated Building)","coordinates":[103.949294393687,1.34068473250176,0]},{"id":106,"postal_code":"129808","building_name":"","unit_number":"2","level_number":"5","road_name":"CLEMENTI LOOP","block_number":"1","pharmacy_name":"Princeton Pharmacy (S) Pte Ltd","coordinates":[103.763539550591,1.32518140385333,0]},{"id":107,"postal_code":"550265","building_name":"","unit_number":"267","level_number":"1","road_name":"SERANGOON CENTRAL DRIVE","block_number":"265","pharmacy_name":"R & D PHARMACEUTICAL PTE LTD","coordinates":[103.871472213275,1.35296373463347,0]},{"id":108,"postal_code":"278997","building_name":"","unit_number":"4","level_number":"2","road_name":"HOLLAND AVENUE","block_number":"118","pharmacy_name":"Raffles Health Holland V","coordinates":[103.796105204144,1.31052978566284,0]},{"id":109,"postal_code":"169608","building_name":"","unit_number":"0","level_number":"1","road_name":"HOSPITAL DRIVE","block_number":"1","pharmacy_name":"SGH Retail Pharmacy (Blk 4)","coordinates":[103.830721779428,1.27993969513111,0]},{"id":110,"postal_code":"168751","building_name":"","unit_number":"","level_number":"","road_name":"THIRD HOSPITAL AVE","block_number":"11","pharmacy_name":"SINGAPORE NATIONAL EYE CENTRE PTE LTD","coordinates":[103.835736520938,1.2810802595994,0]},{"id":111,"postal_code":"168937","building_name":"HEALTH PROMOTION BOARD","unit_number":"0","level_number":"2","road_name":"SECOND HOSPITAL AVENUE","block_number":"3","pharmacy_name":"SINGHEALTH POLY-OUTRAM","coordinates":[103.838315051332,1.27933147000029,0]},{"id":112,"postal_code":"310194","building_name":"KIM KEAT VIEW","unit_number":"416","level_number":"1","road_name":"KIM KEAT AVENUE","block_number":"194","pharmacy_name":"SMITH PHARMACY PTE LTD","coordinates":[103.858181911662,1.33093934294921,0]},{"id":114,"postal_code":"659674","building_name":"ST LUKE'S HOSPITAL","unit_number":"0","level_number":"1","road_name":"BUKIT BATOK STREET 11","block_number":"2","pharmacy_name":"ST LUKE'S HOSPITAL BLOCK A","coordinates":[103.741877626648,1.34953606994152,0]},{"id":115,"postal_code":"820218","building_name":"","unit_number":"6","level_number":"1","road_name":"SUMANG WALK","block_number":"218","pharmacy_name":"SUMANG FAMILY PHARMACY","coordinates":[103.895387026654,1.40322711689378,0]},{"id":116,"postal_code":"159964","building_name":"ALEXANDRA HOSPITAL","unit_number":"0","level_number":"1","road_name":"ALEXANDRA ROAD","block_number":"378","pharmacy_name":"Sengkang Pharmacy (Main Building Blk1)","coordinates":[103.799444847104,1.2881222150317,0]},{"id":117,"postal_code":"169608","building_name":"SINGAPORE GENERAL HOSPITAL","unit_number":"0","level_number":"2","road_name":"OUTRAM RD","block_number":"8","pharmacy_name":"Singapore General Hospital Pharmacy","coordinates":[103.830721779428,1.27993969513111,0]},{"id":118,"postal_code":"469662","building_name":"HEARTBEAT @ BEDOK","unit_number":"1","level_number":"2","road_name":"BEDOK NORTH STREET 1","block_number":"11","pharmacy_name":"Singhealth Poly - Bedok","coordinates":[103.931663531574,1.32699717215909,0]},{"id":119,"postal_code":"150163","building_name":"","unit_number":"3565 & 3575","level_number":"4","road_name":"BUKIT MERAH CENTRAL","block_number":"163","pharmacy_name":"Singhealth Poly - Bukit Merah","coordinates":[103.816939548696,1.28388121594126,0]},{"id":120,"postal_code":"238841","building_name":"ORCHARD PLAZA","unit_number":"6","level_number":"4","road_name":"ORCHARD ROAD","block_number":"150","pharmacy_name":"A.M. Pharmacy Pte Ltd","coordinates":[103.84115014506,1.30125729612723,0]},{"id":121,"postal_code":"498787","building_name":"LIAN SOON AMENITY CENTRE","unit_number":"1-Feb","level_number":"3","road_name":"ALPS AVENUE","block_number":"91","pharmacy_name":"ALPS PHARMACY","coordinates":[104.002513658565,1.37576196236282,0]},{"id":122,"postal_code":"730676","building_name":"","unit_number":"1","level_number":"1","road_name":"WOODLANDS DRIVE 71","block_number":"676","pharmacy_name":"Admiralty Medical Centre Pharmacy","coordinates":[103.800701210433,1.43991608082307,0]},{"id":123,"postal_code":"819665","building_name":"CHANGI AIRPORT TERMINAL 4","unit_number":"55/56","level_number":"2","road_name":"AIRPORT BOULEVARD","block_number":"10","pharmacy_name":"Airport Pharmacy","coordinates":[103.983569030385,1.33826733905461,0]},{"id":124,"postal_code":"510258","building_name":"LOYANG POINT","unit_number":"14","level_number":"1","road_name":"PASIR RIS STREET 21","block_number":"258","pharmacy_name":"Alchemy Pharmacy","coordinates":[103.964617783723,1.36700053331185,0]},{"id":125,"postal_code":"58770","building_name":"","unit_number":"0","level_number":"1","road_name":"SOUTH BRIDGE ROAD","block_number":"221","pharmacy_name":"Amber Compounding Pharmacy Pte Ltd","coordinates":[103.845873082146,1.28289735579849,0]},{"id":126,"postal_code":"529889","building_name":"","unit_number":"","level_number":"","road_name":"SIMEI STREET 3 CHANGI GENERAL HOSPITAL","block_number":"2","pharmacy_name":"CGH Pharmacy B","coordinates":[103.949294393687,1.34068473250176,0]},{"id":127,"postal_code":"168937","building_name":"HEALTH PROMOTION BOARD","unit_number":"1","level_number":"3","road_name":"SECOND HOSPITAL AVENUE","block_number":"3","pharmacy_name":"Child Guidance Clinic  Health Promotion Board","coordinates":[103.838315051332,1.27933147000029,0]},{"id":128,"postal_code":"539747","building_name":"INSTITUTE OF MENTAL HEALTH","unit_number":"BLK 1","level_number":"1","road_name":"BUANGKOK VIEW","block_number":"10","pharmacy_name":"Clinic B Pharmacy","coordinates":[103.883348795228,1.38158954889555,0]},{"id":129,"postal_code":"572505","building_name":"","unit_number":"422","level_number":"1","road_name":"BISHAN STREET 11","block_number":"505B","pharmacy_name":"E+MED PTE LTD","coordinates":[103.848526719408,1.34870136449109,0]},{"id":130,"postal_code":"588177","building_name":"BEAUTY WORLD CENTRE","unit_number":"5","level_number":"2","road_name":"UPPER BUKIT TIMAH ROAD","block_number":"144","pharmacy_name":"E+MED Pte Ltd","coordinates":[103.776250535845,1.34239283575288,0]},{"id":131,"postal_code":"58357","building_name":"PEOPLE'S PARK CENTRE","unit_number":"23","level_number":"1","road_name":"UPPER CROSS STREET","block_number":"101","pharmacy_name":"Essentials Pharmacy","coordinates":[103.843852004525,1.28549527251536,0]},{"id":132,"postal_code":"217562","building_name":"CONNEXION","unit_number":"3","level_number":"1","road_name":"FARRER PARK STATION ROAD","block_number":"1","pharmacy_name":"Farrer Park Pharmacy","coordinates":[103.853842191627,1.3127566809207,0]},{"id":133,"postal_code":"258500","building_name":"","unit_number":"","level_number":"","road_name":"NAPIER ROAD GLENEAGLES HOSPITAL","block_number":"6A","pharmacy_name":"GLENEAGLES HOSPITAL","coordinates":[103.819420895066,1.30736473965355,0]},{"id":134,"postal_code":"650634","building_name":"","unit_number":"110","level_number":"1","road_name":"BUKIT BATOK CENTRAL","block_number":"634","pharmacy_name":"GRACE HEALTHCARE","coordinates":[103.751531282871,1.34973961735749,0]},{"id":152,"postal_code":"440080","building_name":"","unit_number":"792","level_number":"1","road_name":"MARINE PARADE CENTRAL","block_number":"80","pharmacy_name":"Singhealth Poly - Marine Parade","coordinates":[103.907738801213,1.30248203604475,0]},{"id":153,"postal_code":"519457","building_name":"","unit_number":"11","level_number":"1","road_name":"PASIR RIS DRIVE 4","block_number":"1","pharmacy_name":"Singhealth Poly - Pasir Ris","coordinates":[103.959198003863,1.36858703758161,0]},{"id":154,"postal_code":"820681","building_name":"","unit_number":"1","level_number":"3","road_name":"PUNGGOL DRIVE","block_number":"681","pharmacy_name":"Singhealth Poly - Punggol","coordinates":[103.913195749734,1.40287845229054,0]},{"id":155,"postal_code":"545025","building_name":"SENGKANG COMMUNITY HUB","unit_number":"6","level_number":"1","road_name":"SENGKANG SQUARE","block_number":"2","pharmacy_name":"Singhealth Poly - Sengkang","coordinates":[103.893906100079,1.39278559039214,0]},{"id":156,"postal_code":"529203","building_name":"TAMPINES POLYCLINIC","unit_number":"0","level_number":"1","road_name":"TAMPINES STREET 41","block_number":"1","pharmacy_name":"Singhealth Poly - Tampines","coordinates":[103.945849474749,1.35730995455714,0]},{"id":157,"postal_code":"138668","building_name":"CENTROS","unit_number":"5","level_number":"1","road_name":"BIOPOLIS WAY","block_number":"20","pharmacy_name":"Specialist Compounding Pharmacy Pte Ltd","coordinates":[103.791792664273,1.30381616023544,0]},{"id":158,"postal_code":"308433","building_name":"TAN TOCK SENG HOSPITAL","unit_number":"0","level_number":"B1","road_name":"JALAN TAN TOCK SENG","block_number":"11","pharmacy_name":"TAN TOCK SENG HOSPITAL PTE LTD (EMERGENCY PHARMACY)","coordinates":[103.845389010681,1.32171598577179,0]},{"id":159,"postal_code":"82001","building_name":"","unit_number":"3","level_number":"2","road_name":"TANJONG PAGAR PLAZA","block_number":"1","pharmacy_name":"THE DENTAL PHARM","coordinates":[103.842393173168,1.27559620000156,0]},{"id":160,"postal_code":"308433","building_name":"TAN TOCK SENG HOSPITAL","unit_number":"0","level_number":"1","road_name":"JALAN TAN TOCK SENG","block_number":"11","pharmacy_name":"TTSH (CDC Pharmacy - Blk 810 Moulmein Road)","coordinates":[103.845389010681,1.32171598577179,0]},{"id":161,"postal_code":"308433","building_name":"TAN TOCK SENG HOSPITAL","unit_number":"0","level_number":"B2","road_name":"JALAN TAN TOCK SENG","block_number":"11","pharmacy_name":"Tan Tock Seng Hospital (Outpatient & Retail Pharmacy)","coordinates":[103.845389010681,1.32171598577179,0]},{"id":162,"postal_code":"308433","building_name":"TAN TOCK SENG HOSPITAL","unit_number":"0","level_number":"2","road_name":"JALAN TAN TOCK SENG","block_number":"11","pharmacy_name":"Tan Tock Seng Hospital (Pharmacy  Level 2)","coordinates":[103.845389010681,1.32171598577179,0]},{"id":163,"postal_code":"168938","building_name":"NATIONAL DENTAL CENTRE","unit_number":"0","level_number":"2","road_name":"SECOND HOSPITAL AVENUE","block_number":"5","pharmacy_name":"The Dental Pharm","coordinates":[103.838232481914,1.27975902406242,0]},{"id":164,"postal_code":"289899","building_name":"","unit_number":"","level_number":"","road_name":"ADAM ROAD JAPANESE CLUB","block_number":"120","pharmacy_name":"The Japanese Association Clinic  Singapore","coordinates":[103.815584351821,1.3302286871655,0]},{"id":165,"postal_code":"307677","building_name":"","unit_number":"","level_number":"","road_name":"THOMSON ROAD THOMSON MEDICAL CENTRE","block_number":"339","pharmacy_name":"Thomson Medical Centre","coordinates":[103.841448453641,1.3253640685869,0]},{"id":215,"postal_code":"238863","building_name":"LUCKY PLAZA","unit_number":"38","level_number":"5","road_name":"ORCHARD ROAD","block_number":"304","pharmacy_name":"UrbanRx Compounding Pharmacy Pte Ltd","coordinates":[103.833941937816,1.30448580007632,0]},{"id":216,"postal_code":"328201","building_name":"","unit_number":"","level_number":"","road_name":"SERANGOON ROAD","block_number":"1112","pharmacy_name":"VERTEX PHARMACY PTE. LTD.","coordinates":[103.865499315882,1.3242810282521,0]},{"id":217,"postal_code":"160034","building_name":"THE BEO CRESCENT","unit_number":"850","level_number":"1","road_name":"JALAN BUKIT HO SWEE","block_number":"34","pharmacy_name":"Vivahealth Pharmacy","coordinates":[103.827081283638,1.28807687668717,0]},{"id":219,"postal_code":"168732","building_name":"TIONG BAHRU PLAZA","unit_number":"131 TO 132","level_number":"1","road_name":"TIONG BAHRU ROAD","block_number":"302","pharmacy_name":"WATSONS PERSONAL CARE STORES (TIONG BAHRU PLAZA)","coordinates":[103.82693508249,1.28646346132616,0]},{"id":220,"postal_code":"498787","building_name":"LIAN SOON AMENITY CENTRE","unit_number":"10","level_number":"3","road_name":"ALPS AVENUE","block_number":"91","pharmacy_name":"WESTMEAD PHARMACY PTE LTD","coordinates":[104.002513658565,1.37576196236282,0]},{"id":221,"postal_code":"738623","building_name":"","unit_number":"19","level_number":"2","road_name":"WOODLANDS STREET 12","block_number":"4","pharmacy_name":"WOODS PHARMACY PTE LTD","coordinates":[103.779746869404,1.43351253440852,0]},{"id":261,"postal_code":"188024","building_name":"BUGIS JUNCTION","unit_number":"18","level_number":"1","road_name":"VICTORIA STREET","block_number":"230","pharmacy_name":"Welcia-BHG Bugis Junction","coordinates":[103.855786974721,1.3001424905036,0]},{"id":262,"postal_code":"768019","building_name":"NORTHPOINT CITY","unit_number":"149","level_number":"B1","road_name":"NORTHPOINT DRIVE","block_number":"1","pharmacy_name":"Welcia-BHG Northpoint City","coordinates":[103.83614203513,1.42799995648726,0]},{"id":263,"postal_code":"619771","building_name":"WESTPOINT FAMILY HOSPITAL","unit_number":"1","level_number":"1","road_name":"CORPORATION DR","block_number":"235","pharmacy_name":"West Point Hospital Pharmacy","coordinates":[103.72300155644,1.33105591829525,0]},{"id":264,"postal_code":"289891","building_name":"","unit_number":"1","level_number":"1","road_name":"ADAM ROAD","block_number":"19","pharmacy_name":"CONCORD HEALTHCARE RETAIL PHARMACY","coordinates":[103.813318182192,1.32680246385575,0]},{"id":266,"postal_code":"207713","building_name":"MUSTAFA","unit_number":"0","level_number":"1","road_name":"SYED ALWI ROAD","block_number":"171","pharmacy_name":"MUSTAFA PHARMACY","coordinates":[103.856508109061,1.30906470546815,0]}]}]